City_ID,City,Lat,Lng,Max Temp,Humidity,Cloudiness,Wind Speed,Country,Date
0,cape town,-33.9258,18.4232,20.62,76,0,3.09,ZA,"01/20/2023,23:55:00"
1,busselton,-33.65,115.3333,24.69,43,0,5.51,AU,"01/20/2023,23:56:27"
2,shimoda,34.6667,138.95,7.2,63,81,5.56,JP,"01/20/2023,23:55:32"
3,kargil,34.5667,76.1,-21.34,92,92,1.74,IN,"01/20/2023,23:56:28"
4,bredasdorp,-34.5322,20.0403,19.42,86,3,0.36,ZA,"01/20/2023,23:56:29"
5,victoria,22.2855,114.1577,17.36,82,87,3.58,HK,"01/20/2023,23:53:26"
6,lebu,-37.6167,-73.65,15.76,84,0,4.45,CL,"01/20/2023,23:56:30"
7,poum,-20.2333,164.0167,26.86,89,100,13.87,NC,"01/20/2023,23:56:30"
8,lamont,35.2597,-118.9143,13.08,48,0,1.62,US,"01/20/2023,23:56:31"
9,nikolskoye,59.7035,30.7861,-0.67,94,89,0.96,RU,"01/20/2023,23:56:31"
10,mayo,38.8876,-76.5119,7.36,54,100,7.72,US,"01/20/2023,23:56:32"
11,rikitea,-23.1203,-134.9692,26.07,70,84,4.05,PF,"01/20/2023,23:56:32"
12,meulaboh,4.1363,96.1285,23.36,91,99,1.95,ID,"01/20/2023,23:56:32"
13,ushuaia,-54.8,-68.3,12.81,71,75,2.06,AR,"01/20/2023,23:51:34"
14,port alfred,-33.5906,26.891,22.32,97,41,1.34,ZA,"01/20/2023,23:51:30"
15,vredendal,-31.6683,18.5012,17.0,89,0,2.54,ZA,"01/20/2023,23:56:33"
16,ilulissat,69.2167,-51.1,-25.61,99,100,2.66,GL,"01/20/2023,23:56:34"
17,port augusta,-32.5,137.7667,24.37,34,0,5.56,AU,"01/20/2023,23:56:34"
18,cidreira,-30.1811,-50.2056,23.85,86,7,7.46,BR,"01/20/2023,23:51:34"
19,beringovskiy,63.05,179.3167,-33.11,89,30,1.94,RU,"01/20/2023,23:56:35"
20,punta arenas,-53.15,-70.9167,14.06,62,0,4.12,CL,"01/20/2023,23:51:31"
21,barrow,71.2906,-156.7887,-20.99,84,100,3.6,US,"01/20/2023,23:51:35"
22,codrington,-38.2667,141.9667,19.51,63,99,5.89,AU,"01/20/2023,23:56:36"
23,alugan,12.2188,125.4808,26.24,86,97,7.59,PH,"01/20/2023,23:56:36"
24,tessalit,20.1986,1.0114,20.18,15,17,2.49,ML,"01/20/2023,23:56:37"
25,hilo,19.7297,-155.09,29.04,59,40,7.72,US,"01/20/2023,23:56:37"
26,kodiak,57.79,-152.4072,0.73,86,100,7.72,US,"01/20/2023,23:51:43"
27,kavaratti,10.5669,72.642,26.24,65,74,2.05,IN,"01/20/2023,23:56:38"
28,zyryanovsk,49.7386,84.2719,-21.09,99,100,0.29,KZ,"01/20/2023,23:56:38"
29,atuona,-9.8,-139.0333,25.96,76,6,7.17,PF,"01/20/2023,23:56:39"
30,yellowknife,62.456,-114.3525,-18.71,78,20,1.03,CA,"01/20/2023,23:51:38"
31,hobart,-42.8794,147.3294,22.81,62,75,2.57,AU,"01/20/2023,23:56:39"
32,borogontsy,62.6683,131.1683,-51.53,100,81,0.72,RU,"01/20/2023,23:56:40"
33,avarua,-21.2078,-159.775,28.03,78,20,7.2,CK,"01/20/2023,23:56:40"
34,airai,-8.9266,125.4092,18.93,74,100,0.75,TL,"01/20/2023,23:56:40"
35,khatanga,71.9667,102.5,-40.48,98,57,3.02,RU,"01/20/2023,23:56:41"
36,faanui,-16.4833,-151.75,27.6,65,52,5.63,PF,"01/20/2023,23:56:41"
37,zhigansk,66.7697,123.3711,-42.13,95,100,0.73,RU,"01/20/2023,23:56:42"
38,thompson,55.7435,-97.8558,-7.91,93,100,3.09,CA,"01/20/2023,23:56:42"
39,uchaly,54.2996,59.4521,-16.08,77,12,2.6,RU,"01/20/2023,23:56:43"
40,kaitangata,-46.2817,169.8464,16.78,43,50,4.07,NZ,"01/20/2023,23:56:43"
41,san quintin,30.4833,-115.95,14.5,59,4,4.64,MX,"01/20/2023,23:56:43"
42,owando,-0.4819,15.8999,23.88,79,100,1.84,CG,"01/20/2023,23:52:32"
43,ereymentau,51.6199,73.1033,-19.2,99,84,2.46,KZ,"01/20/2023,23:56:44"
44,belmonte,-15.8631,-38.8828,25.26,81,88,3.55,BR,"01/20/2023,23:56:44"
45,saskylakh,71.9167,114.0833,-38.43,100,50,1.69,RU,"01/20/2023,23:57:45"
46,aitape,-3.1374,142.3475,27.65,74,100,1.41,PG,"01/20/2023,23:57:45"
47,kapaa,22.0752,-159.319,26.72,76,27,3.13,US,"01/20/2023,23:53:35"
48,pevek,69.7008,170.3133,-34.52,98,98,0.74,RU,"01/20/2023,23:57:46"
49,mar del plata,-38.0023,-57.5575,23.94,93,75,6.17,AR,"01/20/2023,23:51:32"
50,port elizabeth,-33.918,25.5701,22.4,97,20,0.0,ZA,"01/20/2023,23:57:47"
51,hearst,49.6835,-83.6665,-17.86,100,74,1.09,CA,"01/20/2023,23:54:02"
52,georgetown,5.4112,100.3354,25.96,93,40,1.54,MY,"01/20/2023,23:55:04"
53,pochutla,15.7432,-96.4661,27.68,70,17,1.75,MX,"01/20/2023,23:57:48"
54,longyearbyen,78.2186,15.6401,-1.09,80,75,10.8,SJ,"01/20/2023,23:57:48"
55,luena,-11.7833,19.9167,16.12,95,100,1.91,AO,"01/20/2023,23:57:49"
56,kahului,20.8947,-156.47,26.58,74,12,3.58,US,"01/20/2023,23:57:49"
57,dikson,73.5069,80.5464,-25.69,73,100,14.59,RU,"01/20/2023,23:51:47"
58,chuy,-33.6971,-53.4616,22.41,85,70,6.35,UY,"01/20/2023,23:57:50"
59,dawlatabad,36.4141,64.9053,-3.59,87,98,0.02,AF,"01/20/2023,23:57:50"
60,hasaki,35.7333,140.8333,4.22,45,28,9.46,JP,"01/20/2023,23:51:45"
61,saint-philippe,-21.3585,55.7679,26.77,84,97,1.69,RE,"01/20/2023,23:57:51"
62,havre-saint-pierre,50.2334,-63.5986,-6.0,73,75,3.6,CA,"01/20/2023,23:57:51"
63,ponta do sol,32.6667,-17.1,16.51,71,35,2.22,PT,"01/20/2023,23:57:52"
64,bethel,41.3712,-73.414,6.53,75,99,2.24,US,"01/20/2023,23:57:52"
65,ouadda,8.0777,22.4007,20.92,27,46,2.14,CF,"01/20/2023,23:57:53"
66,tilichiki,60.4667,166.1,-29.06,97,98,5.52,RU,"01/20/2023,23:57:54"
67,mataura,-46.1927,168.8643,16.09,43,77,2.86,NZ,"01/20/2023,23:51:40"
68,lompoc,34.6391,-120.4579,15.52,63,6,3.58,US,"01/20/2023,23:57:54"
69,vaini,-21.2,-175.2,30.09,79,75,4.12,TO,"01/20/2023,23:51:39"
70,batemans bay,-35.7167,150.1833,20.05,53,53,2.49,AU,"01/20/2023,23:57:55"
71,katsuura,35.1333,140.3,6.01,40,69,6.75,JP,"01/20/2023,23:51:41"
72,pachmarhi,22.4667,78.4333,12.8,66,7,1.17,IN,"01/20/2023,23:57:55"
73,eastbourne,50.7687,0.2845,3.76,87,34,1.34,GB,"01/20/2023,23:57:51"
74,bluff,-46.6,168.3333,13.54,55,88,5.06,NZ,"01/20/2023,23:51:36"
75,havelock,34.8791,-76.9013,13.86,46,62,0.45,US,"01/20/2023,23:57:56"
76,qaqortoq,60.7167,-46.0333,-17.45,77,5,4.54,GL,"01/20/2023,23:57:57"
77,rodrigues alves,-7.738,-72.6509,23.11,99,99,1.45,BR,"01/20/2023,23:57:57"
78,albany,42.6001,-73.9662,3.1,80,99,1.34,US,"01/20/2023,23:50:52"
79,klaksvik,62.2266,-6.589,6.51,93,100,19.05,FO,"01/20/2023,23:57:58"
80,altay,47.8667,88.1167,-20.91,94,98,1.66,CN,"01/20/2023,23:57:58"
81,padang,-0.9492,100.3543,23.03,88,100,1.3,ID,"01/20/2023,23:57:59"
82,lagoa,39.05,-27.9833,15.26,81,64,9.55,PT,"01/20/2023,23:57:59"
83,crnomelj,45.5711,15.1889,-0.25,98,99,0.46,SI,"01/20/2023,23:58:00"
84,qaanaaq,77.484,-69.3632,-34.84,60,0,3.63,GL,"01/20/2023,23:58:00"
85,san patricio,28.017,-97.5169,16.05,76,100,7.09,US,"01/20/2023,23:58:01"
86,lawrence,38.9717,-95.2353,4.89,61,33,0.78,US,"01/20/2023,23:58:01"
87,alice springs,-23.7,133.8833,23.75,53,100,1.03,AU,"01/20/2023,23:58:02"
88,hermanus,-34.4187,19.2345,19.33,85,0,0.62,ZA,"01/20/2023,23:51:48"
89,kysyl-syr,63.8986,122.7617,-51.9,100,74,0.95,RU,"01/20/2023,23:59:03"
90,cayenne,4.9333,-52.3333,23.02,100,75,0.51,GF,"01/20/2023,23:59:03"
91,bell ville,-32.6259,-62.6887,24.26,84,98,2.45,AR,"01/20/2023,23:59:04"
92,saryozek,44.3583,77.9753,-15.43,77,1,1.41,KZ,"01/20/2023,23:59:04"
93,waipawa,-41.4122,175.5153,16.66,68,59,4.35,NZ,"01/20/2023,23:59:04"
94,jibuti,11.5,42.5,19.26,80,12,6.55,DJ,"01/20/2023,23:59:05"
95,fairbanks,64.8378,-147.7164,-15.22,83,98,0.59,US,"01/20/2023,23:55:56"
96,atambua,-9.1061,124.8925,25.12,77,100,0.3,ID,"01/20/2023,23:59:05"
97,cartagena,10.3997,-75.5144,26.79,78,0,4.63,CO,"01/20/2023,23:59:06"
98,luderitz,-26.6481,15.1594,18.47,85,3,6.73,NA,"01/20/2023,23:59:06"
99,songea,-10.6833,35.65,18.64,94,75,2.57,TZ,"01/20/2023,23:59:07"
100,bambous virieux,-20.3428,57.7575,24.14,94,75,2.06,MU,"01/20/2023,23:59:07"
101,esperance,-33.8667,121.9,19.31,61,0,5.78,AU,"01/20/2023,23:59:08"
102,severo-kurilsk,50.6789,156.125,-5.67,58,89,5.62,RU,"01/20/2023,23:59:08"
103,deputatskiy,69.3,139.9,-33.02,97,96,2.52,RU,"01/20/2023,23:59:09"
104,thinadhoo,0.5333,72.9333,26.95,66,99,5.33,MV,"01/20/2023,23:59:09"
105,poopo,-18.3667,-66.9667,14.43,40,80,7.16,BO,"01/20/2023,23:59:10"
106,bud,39.447,-86.1758,1.06,78,100,3.84,US,"01/20/2023,23:59:10"
107,lasa,46.6166,10.7002,-3.5,93,87,3.3,IT,"01/20/2023,23:59:11"
108,baghdad,33.3406,44.4009,7.95,100,0,0.0,IQ,"01/20/2023,23:57:26"
109,foki,56.693,54.3499,-15.02,88,97,2.36,RU,"01/20/2023,23:59:11"
110,la palma,33.8464,-118.0467,18.14,53,1,1.79,US,"01/20/2023,23:59:12"
111,chokurdakh,70.6333,147.9167,-34.93,99,99,3.31,RU,"01/20/2023,23:59:13"
112,puerto ayora,-0.7393,-90.3518,24.75,94,73,1.34,EC,"01/20/2023,23:51:34"
113,quatre cocos,-20.2078,57.7625,24.06,87,100,1.87,MU,"01/20/2023,23:59:14"
114,onega,63.9061,38.1404,-8.44,99,100,1.42,RU,"01/20/2023,23:59:14"
115,southbridge,42.0751,-72.0334,2.42,98,100,0.89,US,"01/20/2023,23:59:15"
116,burgersdorp,-30.9977,26.3286,22.3,46,65,2.15,ZA,"01/20/2023,23:59:15"
117,sao jose da coroa grande,-8.8978,-35.1478,25.17,79,82,3.32,BR,"01/20/2023,23:59:16"
118,tuktoyaktuk,69.4541,-133.0374,-25.0,84,100,1.03,CA,"01/20/2023,23:51:44"
119,sitka,57.0531,-135.33,5.99,90,100,7.49,US,"01/20/2023,23:55:28"
120,didao,45.3667,130.8,-26.27,91,62,0.09,CN,"01/20/2023,23:59:17"
121,east london,-33.0153,27.9116,23.29,87,16,4.22,ZA,"01/20/2023,23:59:18"
122,erzin,36.9559,36.2,10.66,60,0,3.1,TR,"01/20/2023,23:59:18"
123,sabha,27.0377,14.4283,6.91,21,0,1.38,LY,"01/20/2023,23:59:19"
124,amos,48.5669,-78.1162,-9.68,98,95,1.79,CA,"01/20/2023,23:59:19"
125,darhan,49.4867,105.9228,-20.49,99,100,0.83,MN,"01/20/2023,23:59:20"
126,omsukchan,62.5333,155.8,-33.02,96,100,2.86,RU,"01/20/2023,23:59:20"
127,ribeira grande,38.5167,-28.7,15.99,86,42,8.05,PT,"01/20/2023,23:59:21"
128,smithers,54.7804,-127.1743,3.18,87,100,1.03,CA,"01/20/2023,23:59:21"
129,cabedelo,-6.9811,-34.8339,26.37,76,17,4.81,BR,"01/20/2023,23:59:22"
130,griffith,41.5284,-87.4237,0.17,78,100,3.09,US,"01/20/2023,23:59:22"
131,nouadhibou,20.931,-17.0347,17.99,82,0,4.63,MR,"01/20/2023,23:59:23"
132,stettler,52.3168,-112.7186,-3.14,68,100,5.14,CA,"01/20/2023,23:59:23"
133,los llanos de aridane,28.6585,-17.9182,16.86,71,75,4.63,ES,"01/20/2023,23:59:24"
134,mahebourg,-20.4081,57.7,24.16,94,75,2.06,MU,"01/20/2023,23:59:24"
135,leshukonskoye,64.8989,45.7622,-2.71,99,100,1.2,RU,"01/21/2023,00:00:25"
136,honningsvag,70.9821,25.9704,2.86,75,75,11.83,NO,"01/21/2023,00:00:25"
137,danielskuil,-28.1887,23.5395,21.83,48,76,2.15,ZA,"01/21/2023,00:00:32"
138,prince rupert,54.3161,-130.3201,9.05,76,100,10.29,CA,"01/21/2023,00:00:03"
139,castro,-24.7911,-50.0119,17.1,93,5,1.55,BR,"01/21/2023,00:00:33"
140,carnarvon,-24.8667,113.6333,24.51,77,1,7.01,AU,"01/21/2023,00:00:34"
141,bismarck,46.8083,-100.7837,-6.52,100,100,5.66,US,"01/20/2023,23:59:01"
142,xiamen,24.4798,118.0819,12.36,65,74,4.94,CN,"01/21/2023,00:00:34"
143,coquimbo,-29.9533,-71.3436,17.74,78,4,3.97,CL,"01/21/2023,00:00:35"
144,upernavik,72.7868,-56.1549,-30.41,96,97,0.82,GL,"01/21/2023,00:00:35"
145,arlit,18.7369,7.3853,19.09,10,0,4.24,NE,"01/21/2023,00:00:36"
146,clyde river,70.4692,-68.5914,-35.46,99,89,1.14,CA,"01/21/2023,00:00:36"
147,tuatapere,-46.1333,167.6833,14.03,54,86,3.41,NZ,"01/20/2023,23:51:48"
148,tomatlan,19.9333,-105.25,24.81,62,28,3.52,MX,"01/21/2023,00:00:37"
149,yatou,37.15,122.3833,-3.43,46,0,1.64,CN,"01/21/2023,00:00:37"
150,arraial do cabo,-22.9661,-42.0278,21.96,92,100,3.9,BR,"01/21/2023,00:00:38"
151,ixtapa,20.7,-105.2,24.57,75,49,2.24,MX,"01/21/2023,00:00:39"
152,kralendijk,12.15,-68.2667,26.03,79,9,9.06,BQ,"01/21/2023,00:00:40"
153,ivanivka,46.7208,34.553,3.28,77,100,7.67,UA,"01/21/2023,00:00:41"
154,dvurechensk,56.5982,61.0953,-3.79,67,9,3.68,RU,"01/21/2023,00:00:41"
155,jamestown,42.097,-79.2353,1.77,75,100,6.17,US,"01/20/2023,23:46:49"
156,baruun-urt,46.6806,113.2792,-22.56,86,97,1.37,MN,"01/21/2023,00:00:42"
157,komsomolskiy,40.4272,71.7189,-7.6,79,50,2.06,UZ,"01/21/2023,00:00:43"
158,salinopolis,-0.6136,-47.3561,25.36,85,75,4.2,BR,"01/21/2023,00:00:44"
159,college,64.8569,-147.8028,-15.23,83,99,0.6,US,"01/21/2023,00:00:44"
160,fortuna,40.5982,-124.1573,11.66,64,0,3.09,US,"01/21/2023,00:00:45"
161,svetlogorsk,52.6333,29.7333,2.54,91,100,3.96,BY,"01/21/2023,00:00:45"
162,noumea,-22.2763,166.4572,28.99,99,100,4.85,NC,"01/21/2023,00:00:08"
163,vostok,46.4856,135.8833,-29.77,93,78,1.83,RU,"01/21/2023,00:00:46"
164,pilar,-9.5972,-35.9567,23.49,83,95,2.4,BR,"01/21/2023,00:00:46"
165,spornoye,50.8448,37.2913,-1.12,62,100,6.87,RU,"01/21/2023,00:00:47"
166,villa del rosario,7.8339,-72.4742,21.11,89,57,1.24,CO,"01/21/2023,00:00:48"
167,touba,8.2833,-7.6833,24.58,21,34,1.26,CI,"01/21/2023,00:00:48"
168,muros,42.7762,-9.0603,13.38,94,95,4.52,ES,"01/21/2023,00:00:50"
169,iqaluit,63.7506,-68.5145,-24.06,83,91,1.31,CA,"01/21/2023,00:00:51"
170,saraland,30.8207,-88.0706,15.4,58,100,2.5,US,"01/21/2023,00:00:51"
171,husavik,66.0449,-17.3389,4.25,91,100,5.73,IS,"01/21/2023,00:00:52"
172,ilebo,-4.3167,20.5833,21.85,96,100,0.23,CD,"01/21/2023,00:00:53"
173,anadyr,64.75,177.4833,-32.72,74,20,5.0,RU,"01/21/2023,00:00:54"
174,latung,5.5,120.8833,27.5,76,92,2.6,PH,"01/21/2023,00:00:54"
175,namatanai,-3.6667,152.4333,28.7,73,98,1.97,PG,"01/21/2023,00:00:55"
176,nchelenge,-9.3451,28.734,20.74,88,100,2.81,ZM,"01/21/2023,00:01:55"
177,shingu,33.7333,135.9833,4.44,53,3,3.04,JP,"01/21/2023,00:01:56"
178,san policarpo,12.1791,125.5072,26.44,85,97,8.06,PH,"01/21/2023,00:01:56"
179,komsomolets,53.7453,62.0708,-14.92,81,65,2.47,KZ,"01/21/2023,00:01:57"
180,sao filipe,14.8961,-24.4956,21.92,69,2,6.21,CV,"01/21/2023,00:01:57"
181,medicine hat,50.0501,-110.6683,-0.99,76,100,1.34,CA,"01/21/2023,00:01:58"
182,cam ranh,11.9214,109.1591,23.98,73,75,6.69,VN,"01/21/2023,00:01:58"
183,pundaguitan,6.3711,126.1689,26.55,79,100,6.42,PH,"01/21/2023,00:01:59"
184,broome,42.2506,-75.833,2.61,90,100,3.09,US,"01/21/2023,00:01:59"
185,flin flon,54.7682,-101.865,-9.47,97,41,2.34,CA,"01/21/2023,00:02:00"
186,braganca paulista,-22.94,-46.5556,17.26,97,95,1.45,BR,"01/21/2023,00:02:00"
187,ibra,22.6906,58.5334,13.88,75,0,1.95,OM,"01/21/2023,00:02:00"
188,kamenka,51.3223,42.7678,-6.37,80,100,6.2,RU,"01/21/2023,00:02:01"
189,west richland,46.3043,-119.3614,6.28,72,47,1.34,US,"01/20/2023,23:59:26"
190,maceio,-9.6658,-35.7353,25.76,77,77,4.28,BR,"01/21/2023,00:00:05"
191,butaritari,3.0707,172.7902,27.56,74,52,7.12,KI,"01/21/2023,00:02:02"
192,saint-maximin-la-sainte-baume,43.4521,5.8622,2.88,58,0,3.0,FR,"01/21/2023,00:02:03"
193,isangel,-19.55,169.2667,27.53,73,98,4.11,VU,"01/21/2023,00:02:03"
194,sakakah,29.9697,40.2064,12.76,59,22,3.08,SA,"01/20/2023,23:57:07"
195,guanare,9.0418,-69.7421,24.01,60,36,2.57,VE,"01/21/2023,00:02:04"
196,ariquemes,-9.9133,-63.0408,22.15,98,86,1.47,BR,"01/21/2023,00:02:04"
197,amapa,1.0,-52.0,22.09,99,90,1.3,BR,"01/21/2023,00:02:05"
198,chuhar kana,31.75,73.8,7.34,92,79,3.03,PK,"01/21/2023,00:02:05"
199,sibolga,1.7427,98.7792,23.46,89,93,1.58,ID,"01/21/2023,00:02:06"
200,acarau,-2.8856,-40.12,26.11,79,99,5.12,BR,"01/21/2023,00:02:06"
201,cherskiy,68.75,161.3,-39.71,100,96,1.12,RU,"01/21/2023,00:02:07"
202,torbay,47.6666,-52.7314,0.88,94,100,6.26,CA,"01/21/2023,00:02:07"
203,dingle,10.9995,122.6711,24.67,90,100,3.75,PH,"01/21/2023,00:02:08"
204,half moon bay,37.4636,-122.4286,13.57,44,0,6.17,US,"01/20/2023,23:57:41"
205,calbuco,-41.768,-73.1273,17.33,82,67,2.6,CL,"01/21/2023,00:02:08"
206,tiksi,71.6872,128.8694,-31.17,95,78,1.76,RU,"01/21/2023,00:02:09"
207,san carlos de bariloche,-41.1456,-71.3082,15.69,63,7,4.48,AR,"01/21/2023,00:02:09"
208,puerto carreno,6.189,-67.4859,29.42,41,83,4.86,CO,"01/21/2023,00:02:10"
209,chiang klang,19.2938,100.8617,15.63,85,9,0.35,TH,"01/21/2023,00:02:10"
210,aklavik,68.2191,-135.0107,-29.76,100,83,0.52,CA,"01/21/2023,00:02:11"
211,bratsk,56.1325,101.6142,-42.59,98,92,1.83,RU,"01/21/2023,00:02:11"
212,lar,26.2039,83.9717,11.44,66,29,2.25,IN,"01/21/2023,00:02:12"
213,peterhead,57.5058,-1.7981,2.22,80,48,8.59,GB,"01/21/2023,00:02:12"
214,heiligenhafen,54.3667,10.9833,2.64,90,97,3.01,DE,"01/21/2023,00:02:13"
215,nantucket,41.2835,-70.0995,4.06,93,100,4.63,US,"01/20/2023,23:58:55"
216,talaya,61.3833,152.75,-32.08,97,100,2.33,RU,"01/21/2023,00:02:14"
217,impfondo,1.6381,18.0667,21.98,42,68,1.52,CG,"01/21/2023,00:02:14"
218,constitucion,-35.3333,-72.4167,15.36,81,3,5.67,CL,"01/21/2023,00:02:15"
219,kavieng,-2.5744,150.7967,28.6,73,100,3.13,PG,"01/21/2023,00:02:15"
220,tripoli,32.8752,13.1875,12.81,50,7,7.1,LY,"01/20/2023,23:58:55"
221,micheweni,-4.9667,39.8333,27.23,81,92,6.18,TZ,"01/21/2023,00:02:16"
222,miram shah,33.0086,70.0697,5.01,77,96,3.11,PK,"01/21/2023,00:03:17"
223,chiang rai,19.9167,99.9167,15.32,98,6,0.53,TH,"01/21/2023,00:03:17"
224,port macquarie,-31.4333,152.9167,24.94,52,80,3.54,AU,"01/21/2023,00:03:18"
225,nuuk,64.1835,-51.7216,-15.07,77,15,5.81,GL,"01/21/2023,00:00:51"
226,mehamn,71.0357,27.8492,2.97,75,75,8.75,NO,"01/21/2023,00:03:19"
227,roma,43.2128,-75.4557,0.4,94,100,3.6,US,"01/21/2023,00:03:19"
228,north bend,43.4065,-124.2243,11.71,100,5,3.68,US,"01/20/2023,23:58:49"
229,two hills,53.7169,-111.7518,-3.79,88,76,3.52,CA,"01/21/2023,00:03:20"
230,santa maria,-29.6842,-53.8069,28.07,52,61,4.41,BR,"01/21/2023,00:03:20"
231,leningradskiy,69.3833,178.4167,-31.52,93,100,5.51,RU,"01/21/2023,00:03:21"
232,bonthe,7.5264,-12.505,25.12,83,95,4.11,SL,"01/21/2023,00:03:22"
233,isla mujeres,21.2311,-86.731,26.76,73,16,4.9,MX,"01/21/2023,00:03:22"
234,yeppoon,-23.1333,150.7333,26.88,67,40,6.21,AU,"01/21/2023,00:03:23"
235,saldanha,-33.0117,17.9442,17.52,89,0,4.28,ZA,"01/21/2023,00:03:23"
236,saint-pierre,-21.3393,55.4781,26.82,83,0,2.57,RE,"01/21/2023,00:03:24"
237,tasiilaq,65.6145,-37.6368,-11.91,90,73,2.17,GL,"01/21/2023,00:03:24"
238,nouakchott,18.0858,-15.9785,16.96,76,0,6.91,MR,"01/21/2023,00:00:20"
239,ust-kuyga,70.0167,135.6,-44.21,100,100,1.83,RU,"01/21/2023,00:03:25"
240,nemuro,43.3236,145.575,-4.41,70,97,11.82,JP,"01/21/2023,00:03:26"
241,berlevag,70.8578,29.0864,3.0,69,100,9.77,NO,"01/21/2023,00:03:26"
242,matara,5.9485,80.5353,22.36,86,87,2.97,LK,"01/21/2023,00:03:27"
243,araouane,18.9048,-3.5265,20.71,16,0,2.5,ML,"01/21/2023,00:03:28"
244,black river,18.0264,-77.8487,23.65,75,39,1.27,JM,"01/21/2023,00:03:28"
245,kurchum,48.5722,83.6542,-23.31,99,83,1.75,KZ,"01/21/2023,00:03:29"
246,kungurtug,50.5994,97.5228,-18.92,100,100,0.71,RU,"01/21/2023,00:03:29"
247,tambun,-6.2641,107.0712,28.05,73,100,1.14,ID,"01/21/2023,00:03:29"
248,roald,62.5833,6.1333,2.51,75,20,4.12,NO,"01/21/2023,00:03:30"
249,hithadhoo,-0.6,73.0833,26.94,70,97,5.72,MV,"01/21/2023,00:03:30"
250,gweta,-20.1833,25.2333,22.73,66,52,4.03,BW,"01/21/2023,00:03:31"
251,port hardy,50.6996,-127.4199,6.47,90,97,7.9,CA,"01/21/2023,00:03:31"
252,walvis bay,-22.9575,14.5053,18.71,86,20,1.33,NA,"01/21/2023,00:03:32"
253,nanortalik,60.1432,-45.2371,-7.58,55,0,13.92,GL,"01/21/2023,00:03:32"
254,bosaso,11.2842,49.1816,23.23,74,13,1.66,SO,"01/21/2023,00:03:33"
255,asau,46.4333,26.4,4.6,92,100,2.13,RO,"01/21/2023,00:03:33"
256,fukuma,33.7667,130.4667,5.16,50,60,0.58,JP,"01/21/2023,00:03:34"
257,wenling,28.3669,121.36,8.43,73,99,3.03,CN,"01/21/2023,00:00:38"
258,egvekinot,66.3167,-179.1667,-30.6,99,100,0.62,RU,"01/21/2023,00:03:34"
259,provideniya,64.3833,-173.3,-28.99,88,10,2.23,RU,"01/21/2023,00:03:35"
260,aniva,46.7144,142.5294,-17.72,82,36,6.41,RU,"01/21/2023,00:03:35"
261,ancud,-41.8697,-73.8203,15.39,89,89,2.88,CL,"01/21/2023,00:03:36"
262,lavrentiya,65.5833,-171.0,-32.43,93,34,3.04,RU,"01/21/2023,00:03:36"
263,dalvik,65.9702,-18.5286,5.48,89,100,5.77,IS,"01/21/2023,00:03:36"
264,monrovia,6.3005,-10.7969,25.71,87,66,3.38,LR,"01/21/2023,00:03:36"
265,new norfolk,-42.7826,147.0587,23.17,51,68,0.89,AU,"01/21/2023,00:03:37"
266,talara,-4.5772,-81.2719,22.11,82,56,5.47,PE,"01/21/2023,00:03:38"
267,rodeo,38.033,-122.2669,14.02,43,0,3.6,US,"01/21/2023,00:04:38"
268,polis,35.0367,32.4264,10.9,78,0,1.64,CY,"01/21/2023,00:04:39"
269,peleduy,59.6289,112.7406,-45.07,98,62,1.36,RU,"01/21/2023,00:04:39"
270,san miguel,13.4833,-88.1833,28.15,50,15,2.1,SV,"01/21/2023,00:04:40"
271,grindavik,63.8424,-22.4338,4.26,100,100,8.23,IS,"01/21/2023,00:04:40"
272,batagay,67.6333,134.6333,-46.84,98,74,0.95,RU,"01/21/2023,00:04:41"
273,hami,42.8,93.45,-9.19,47,82,1.1,CN,"01/21/2023,00:04:42"
274,zhuhai,22.2769,113.5678,16.88,88,40,3.09,CN,"01/21/2023,00:04:42"
275,bereda,43.2686,-7.5406,12.3,100,100,1.6,ES,"01/21/2023,00:04:43"
276,dunedin,-45.8742,170.5036,16.0,53,30,1.79,NZ,"01/21/2023,00:00:47"
277,iralaya,15.0,-83.2333,24.48,80,2,4.48,HN,"01/21/2023,00:04:43"
278,cabo san lucas,22.8909,-109.9124,23.62,58,0,4.63,MX,"01/21/2023,00:04:44"
279,laguna,38.421,-121.4238,13.16,42,0,3.6,US,"01/21/2023,00:04:44"
280,xam nua,20.4197,104.0439,8.24,98,12,0.89,LA,"01/21/2023,00:04:45"
281,saint-francois,46.4154,3.9054,0.69,95,100,3.09,FR,"01/21/2023,00:02:43"
282,macomer,40.262,8.7699,0.1,86,31,3.14,IT,"01/21/2023,00:04:45"
283,narsaq,60.9167,-46.05,-11.88,70,4,2.68,GL,"01/21/2023,00:04:46"
284,moussoro,13.6408,16.4901,21.25,18,16,4.77,TD,"01/21/2023,00:04:46"
285,tiznit,29.5833,-9.5,11.69,60,0,0.68,MA,"01/21/2023,00:04:47"
286,ostrovnoy,68.0531,39.5131,-3.43,89,80,8.1,RU,"01/21/2023,00:04:47"
287,chuzhou,32.3219,118.2978,1.41,76,33,3.56,CN,"01/21/2023,00:04:48"
288,abha,18.2164,42.5053,9.14,81,0,2.06,SA,"01/21/2023,00:04:48"
289,zeya,53.75,127.2667,-43.27,96,19,1.15,RU,"01/21/2023,00:04:49"
290,labuhan,-6.8844,112.2051,25.39,85,99,2.61,ID,"01/21/2023,00:04:49"
291,fort nelson,58.8053,-122.7002,-5.03,91,89,0.61,CA,"01/21/2023,00:00:41"
292,pampa,35.5362,-100.9599,11.53,43,0,8.75,US,"01/21/2023,00:04:50"
293,manono,-7.3,27.4167,20.39,97,100,1.28,CD,"01/21/2023,00:04:50"
294,guerrero negro,27.9769,-114.0611,16.2,59,0,7.97,MX,"01/21/2023,00:04:51"
295,nador,35.174,-2.9287,16.14,77,75,6.17,MA,"01/21/2023,00:04:51"
296,ramhormoz,31.28,49.6035,12.53,60,0,0.68,IR,"01/21/2023,00:04:52"
297,kadi,23.3,72.3333,13.92,35,0,3.39,IN,"01/21/2023,00:04:52"
298,kaputa,-8.4689,29.6619,19.52,92,100,2.16,ZM,"01/21/2023,00:04:53"
299,kruisfontein,-34.0033,24.7314,21.05,97,72,1.02,ZA,"01/21/2023,00:04:53"
300,fukue,32.6881,128.8419,7.1,61,79,3.98,JP,"01/21/2023,00:04:54"
301,aksarka,66.5606,67.7975,-8.72,96,100,2.82,RU,"01/21/2023,00:04:54"
302,pangoa,-12.1167,-73.0,19.96,98,87,0.79,PE,"01/21/2023,00:04:55"
303,tokonou,9.65,-9.7833,22.79,19,75,1.08,GN,"01/21/2023,00:04:55"
304,madang,-5.2246,145.7966,28.56,73,100,1.79,PG,"01/21/2023,00:04:56"
305,bubaque,11.2833,-15.8333,25.17,66,5,6.39,GW,"01/21/2023,00:04:56"
306,mareeba,-17.0,145.4333,29.13,73,100,2.53,AU,"01/21/2023,00:04:57"
307,hinton,53.4001,-117.5857,-1.69,84,93,4.29,CA,"01/21/2023,00:02:07"
308,oil city,41.4339,-79.7064,1.0,100,100,5.14,US,"01/21/2023,00:04:58"
309,smidovich,48.6,133.8167,-35.83,87,19,3.07,RU,"01/21/2023,00:05:58"
310,skibbereen,51.55,-9.2667,8.95,97,100,3.2,IE,"01/21/2023,00:05:58"
311,stornoway,58.2093,-6.3865,5.98,83,100,14.4,GB,"01/21/2023,00:05:59"
312,salvador,13.8333,-88.9167,24.47,58,16,1.62,SV,"01/21/2023,00:02:57"
313,vacaria,-28.5122,-50.9339,18.62,84,69,3.2,BR,"01/21/2023,00:06:00"
314,camacha,33.0833,-16.3333,14.68,72,40,4.12,PT,"01/21/2023,00:06:00"
315,bogande,12.9714,-0.1436,22.94,14,0,3.1,BF,"01/21/2023,00:06:00"
316,nerchinskiy zavod,51.3088,119.61,-34.76,98,100,1.87,RU,"01/21/2023,00:06:01"
317,port lincoln,-34.7333,135.8667,17.92,67,100,5.98,AU,"01/21/2023,00:06:02"
318,saint george,37.1041,-113.5841,8.3,42,0,5.14,US,"01/21/2023,00:06:02"
319,mahanoro,-19.9,48.8,24.57,95,100,4.22,MG,"01/21/2023,00:06:03"
320,bima,-8.4667,118.7167,27.01,85,95,1.19,ID,"01/21/2023,00:06:03"
321,honiara,-9.4333,159.95,29.68,68,100,1.6,SB,"01/21/2023,00:06:04"
322,maun,-19.9833,23.4167,20.26,81,71,2.21,BW,"01/21/2023,00:06:04"
323,carmo do paranaiba,-19.0008,-46.3161,20.42,83,87,1.32,BR,"01/21/2023,00:06:05"
324,kaduqli,11.0167,29.7167,23.08,17,48,4.42,SD,"01/21/2023,00:06:05"
325,montlucon,46.3333,2.6,0.95,92,92,2.37,FR,"01/21/2023,00:06:06"
326,panguna,-6.3164,155.4848,27.52,59,100,1.49,PG,"01/21/2023,00:06:06"
327,gizo,-8.103,156.8419,28.98,68,100,2.92,SB,"01/21/2023,00:06:07"
328,gushikawa,26.3544,127.8686,16.57,73,100,2.57,JP,"01/21/2023,00:06:07"
329,belaya,49.029,25.7706,6.74,84,100,6.57,UA,"01/21/2023,00:06:08"
330,balikpapan,-1.2675,116.8289,25.55,94,20,1.54,ID,"01/21/2023,00:06:08"
331,alekseyevsk,57.8406,108.3492,-40.41,100,99,0.61,RU,"01/21/2023,00:06:09"
332,mayor pablo lagerenza,-19.9309,-60.7718,32.35,40,50,5.64,PY,"01/21/2023,00:06:09"
333,dicabisagan,17.0818,122.4157,23.32,86,100,4.62,PH,"01/21/2023,00:06:10"
334,bathsheba,13.2167,-59.5167,25.34,73,40,8.75,BB,"01/21/2023,00:06:10"
335,vila franca do campo,37.7167,-25.4333,14.23,71,95,3.25,PT,"01/21/2023,00:06:11"
336,praia da vitoria,38.7333,-27.0667,15.42,83,89,7.37,PT,"01/21/2023,00:06:11"
337,sao miguel do araguaia,-13.275,-50.1628,22.94,82,11,1.09,BR,"01/21/2023,00:06:12"
338,harper,4.375,-7.7169,26.67,79,89,3.11,LR,"01/21/2023,00:06:12"
339,udachnyy,66.4167,112.4,-44.87,100,81,2.37,RU,"01/21/2023,00:06:13"
340,port moresby,-9.4431,147.1797,28.27,68,100,3.52,PG,"01/21/2023,00:06:13"
341,kathmandu,27.7167,85.3167,5.12,100,20,1.54,NP,"01/21/2023,00:04:41"
342,pandan,14.0453,124.1694,24.46,91,99,7.1,PH,"01/21/2023,00:06:14"
343,mindelheim,48.05,10.4833,-3.13,87,75,1.54,DE,"01/21/2023,00:06:15"
344,plaeng yao,13.5847,101.284,24.31,100,93,2.94,TH,"01/21/2023,00:04:00"
345,cooma,-36.2333,149.1333,19.84,42,56,1.96,AU,"01/21/2023,00:06:16"
346,abonnema,4.7084,6.7931,27.03,80,85,2.84,NG,"01/21/2023,00:06:16"
347,alpine,32.835,-116.7664,14.04,58,0,4.63,US,"01/21/2023,00:05:08"
348,vestmannaeyjar,63.4427,-20.2734,8.7,93,100,15.26,IS,"01/21/2023,00:06:17"
349,havoysund,70.9963,24.6622,2.13,69,78,10.92,NO,"01/21/2023,00:06:17"
350,kallaste,58.655,27.1592,-2.87,81,96,2.69,EE,"01/21/2023,00:06:18"
351,parrita,9.5201,-84.3225,24.94,86,19,1.15,CR,"01/21/2023,00:06:18"
352,atar,20.5169,-13.0499,18.22,30,0,2.64,MR,"01/21/2023,00:06:19"
353,peniche,39.3558,-9.3811,14.5,96,25,6.75,PT,"01/21/2023,00:07:19"
354,labytnangi,66.6572,66.4183,-11.94,97,100,1.4,RU,"01/21/2023,00:07:19"
355,alvaraes,-3.2208,-64.8042,21.84,99,100,1.0,BR,"01/21/2023,00:07:20"
356,rudnaya pristan,44.3614,135.8116,-17.75,58,71,4.02,RU,"01/21/2023,00:07:20"
357,pierre,44.3683,-100.351,-7.49,93,0,2.06,US,"01/21/2023,00:07:21"
358,korla,41.7597,86.1469,-14.33,76,5,0.64,CN,"01/21/2023,00:07:21"
359,yar-sale,66.8333,70.8333,-14.3,94,100,9.46,RU,"01/21/2023,00:07:22"
360,yenagoa,4.9247,6.2642,26.32,82,77,1.69,NG,"01/21/2023,00:07:22"
361,navahrudak,53.6,25.8333,-0.78,97,100,6.94,BY,"01/21/2023,00:07:23"
362,sayyan,15.1718,44.3244,8.69,42,5,1.2,YE,"01/21/2023,00:07:23"
363,lerwick,60.1545,-1.1494,6.0,74,71,10.4,GB,"01/21/2023,00:07:24"
364,allapalli,19.4167,80.0667,16.82,76,8,1.27,IN,"01/21/2023,00:07:24"
365,calama,-22.4667,-68.9333,19.27,34,0,8.23,CL,"01/21/2023,00:07:25"
366,larsnes,62.2028,5.5773,3.71,73,62,4.3,NO,"01/21/2023,00:07:25"
367,lagoa vermelha,-28.2086,-51.5258,18.1,86,60,2.03,BR,"01/21/2023,00:06:10"
368,puerto ayacucho,5.6639,-67.6236,27.99,52,79,0.74,VE,"01/21/2023,00:07:26"
369,santa rosa,14.3122,121.1114,25.62,86,96,6.38,PH,"01/21/2023,00:07:26"
370,indianola,41.3581,-93.5574,-1.73,95,31,1.38,US,"01/21/2023,00:07:27"
371,avera,33.194,-82.5271,11.97,51,89,4.05,US,"01/21/2023,00:07:28"
372,kwinana,-32.25,115.7667,31.56,28,0,1.79,AU,"01/21/2023,00:07:28"
373,pestovo,58.5938,35.8024,1.57,98,100,2.68,RU,"01/21/2023,00:07:29"
374,bridlington,54.0831,-0.1919,0.85,74,8,3.78,GB,"01/21/2023,00:07:29"
375,olafsvik,64.8945,-23.7142,5.32,94,100,11.8,IS,"01/21/2023,00:07:30"
376,muswellbrook,-32.2667,150.9,24.06,40,33,3.64,AU,"01/21/2023,00:07:30"
377,jeremie,18.65,-74.1167,23.67,71,21,0.59,HT,"01/21/2023,00:07:31"
378,taltal,-25.4,-70.4833,20.41,78,25,2.86,CL,"01/21/2023,00:07:31"
379,caorle,45.5966,12.8758,4.12,65,82,4.92,IT,"01/21/2023,00:07:32"
380,osoyoos,49.0331,-119.4524,0.53,90,59,0.41,CA,"01/21/2023,00:07:32"
381,merauke,-8.4667,140.3333,25.95,87,100,7.05,ID,"01/21/2023,00:07:33"
382,kharian,32.8149,73.8636,8.8,76,72,3.14,PK,"01/21/2023,00:07:33"
383,beihai,21.4833,109.1,16.38,75,100,3.47,CN,"01/21/2023,00:07:34"
384,caravelas,-17.7125,-39.2481,25.11,82,100,3.25,BR,"01/21/2023,00:06:23"
385,saint-georges,12.0564,-61.7485,24.4,81,74,6.44,GD,"01/21/2023,00:07:35"
386,ngorongoro,-3.2397,35.4875,12.08,80,84,1.86,TZ,"01/21/2023,00:07:35"
387,buala,-8.145,159.5921,29.33,65,100,1.57,SB,"01/21/2023,00:07:36"
388,norman wells,65.282,-126.8329,-19.57,95,24,1.9,CA,"01/21/2023,00:07:36"
389,celestun,20.8667,-90.4,24.83,84,61,2.73,MX,"01/21/2023,00:07:37"
390,puerto colombia,10.9878,-74.9547,26.05,80,0,11.48,CO,"01/21/2023,00:07:37"
391,kassala,15.451,36.4,23.12,56,1,3.37,SD,"01/21/2023,00:07:38"
392,san cristobal,7.7669,-72.225,18.5,76,45,0.55,VE,"01/21/2023,00:07:38"
393,bam,29.106,58.357,5.1,50,3,2.74,IR,"01/21/2023,00:07:38"
394,cavalcante,-13.7975,-47.4583,20.43,89,99,0.34,BR,"01/21/2023,00:07:40"
395,vao,-22.6667,167.4833,25.61,81,100,12.18,NC,"01/21/2023,00:06:17"
396,russell,32.3502,-85.1999,12.78,62,91,2.27,US,"01/21/2023,00:07:41"
397,oktyabrskiy,54.4815,53.471,-18.91,84,8,2.18,RU,"01/21/2023,00:07:41"
398,bintulu,3.1667,113.0333,24.74,90,100,2.0,MY,"01/21/2023,00:07:42"
399,san luis,-33.295,-66.3356,25.01,63,26,6.2,AR,"01/21/2023,00:04:04"
400,narasannapeta,18.4167,84.05,22.21,81,93,1.54,IN,"01/21/2023,00:08:42"
401,banjar,-8.19,114.9675,26.74,85,99,1.98,ID,"01/21/2023,00:08:43"
402,alberton,46.8168,-64.0654,-0.92,95,100,9.51,CA,"01/21/2023,00:08:43"
403,montecristi,-1.05,-80.6667,26.9,65,40,3.6,EC,"01/21/2023,00:08:44"
404,tsaratanana,-16.7833,47.65,21.24,98,100,4.13,MG,"01/21/2023,00:08:44"
405,dakar,14.6937,-17.4441,19.49,75,2,8.88,SN,"01/21/2023,00:08:45"
406,la romana,18.4273,-68.9728,22.01,86,10,3.99,DO,"01/21/2023,00:08:45"
407,te anau,-45.4167,167.7167,17.28,46,8,1.02,NZ,"01/21/2023,00:08:46"
408,sur,22.5667,59.5289,19.61,50,0,5.35,OM,"01/21/2023,00:08:46"
409,benin,9.5,2.25,25.58,19,88,1.38,BJ,"01/21/2023,00:08:46"
410,nuevo progreso,23.1667,-97.95,22.16,72,99,0.45,MX,"01/21/2023,00:08:47"
411,paamiut,61.994,-49.6678,-18.87,81,23,4.56,GL,"01/21/2023,00:08:47"
412,mount gambier,-37.8333,140.7667,19.76,56,98,4.44,AU,"01/21/2023,00:08:48"
413,moosomin,50.1333,-101.6677,-7.58,83,71,4.58,CA,"01/21/2023,00:08:48"
414,port hedland,-20.3167,118.5667,29.03,74,52,2.06,AU,"01/21/2023,00:08:49"
415,ibitinga,-21.7578,-48.8289,21.02,94,84,1.67,BR,"01/21/2023,00:07:03"
416,viedma,-40.8135,-62.9967,22.66,78,81,2.91,AR,"01/21/2023,00:08:49"
417,srednekolymsk,67.45,153.6833,-35.9,99,100,2.88,RU,"01/21/2023,00:08:50"
418,kokopo,-4.352,152.2633,29.01,65,98,1.3,PG,"01/21/2023,00:08:50"
419,riachao das neves,-11.7461,-44.91,22.78,81,100,0.95,BR,"01/21/2023,00:07:58"
420,glomfjord,66.8167,13.9667,0.43,96,96,1.94,NO,"01/21/2023,00:08:51"
421,price,39.5994,-110.8107,-0.41,51,0,4.12,US,"01/21/2023,00:08:51"
422,bengkulu,-3.8004,102.2655,23.48,91,100,1.73,ID,"01/21/2023,00:08:52"
423,najran,17.4924,44.1277,11.47,44,0,1.05,SA,"01/21/2023,00:08:52"
424,alofi,-19.0595,-169.9187,27.32,77,38,6.73,NU,"01/21/2023,00:08:32"
425,rome,34.257,-85.1647,10.17,68,0,1.54,US,"01/21/2023,00:04:22"
426,ormond beach,29.2858,-81.0559,20.57,81,75,0.0,US,"01/21/2023,00:08:53"
427,zugdidi,42.5088,41.8709,11.17,34,100,4.8,GE,"01/21/2023,00:08:54"
428,kachiry,53.0675,76.1036,-20.08,100,100,1.44,KZ,"01/21/2023,00:08:54"
429,hualmay,-11.0964,-77.6139,21.74,78,75,3.56,PE,"01/21/2023,00:08:55"
430,iberia,29.9502,-91.7507,13.04,54,75,5.66,US,"01/21/2023,00:08:55"
431,kamina,-8.7386,24.9906,17.49,99,100,1.42,CD,"01/21/2023,00:08:56"
432,pimentel,-6.8367,-79.9342,22.16,78,75,7.2,PE,"01/21/2023,00:08:56"
433,nambucca heads,-30.65,153.0,25.56,51,64,3.7,AU,"01/21/2023,00:08:57"
434,manyana,-23.4,21.7167,21.67,58,81,0.98,BW,"01/21/2023,00:08:57"
435,jodhpur,26.2867,73.03,11.44,49,0,4.3,IN,"01/21/2023,00:08:58"
436,conde,-7.2597,-34.9075,25.7,78,0,2.57,BR,"01/21/2023,00:08:58"
437,fasa,28.9383,53.6482,5.7,53,0,1.74,IR,"01/21/2023,00:08:59"
438,sorland,67.667,12.6934,2.92,72,20,4.77,NO,"01/21/2023,00:08:59"
439,la paz,-16.5,-68.15,8.29,80,91,1.58,BO,"01/21/2023,00:04:02"
440,buchanan,5.8808,-10.0467,26.14,84,52,2.78,LR,"01/21/2023,00:05:21"
441,bilma,18.6853,12.9164,16.65,14,0,4.56,NE,"01/21/2023,00:09:00"
442,noyabrsk,63.1994,75.4507,-24.13,87,100,9.15,RU,"01/21/2023,00:09:01"
443,port blair,11.6667,92.75,24.58,78,31,4.19,IN,"01/21/2023,00:09:01"
444,san giovanni valdarno,43.5667,11.5333,5.36,65,100,0.89,IT,"01/21/2023,00:09:02"
445,buritis,-15.6178,-46.4233,22.88,79,64,1.21,BR,"01/21/2023,00:09:02"
446,vanavara,60.34,102.2797,-46.1,100,57,1.54,RU,"01/21/2023,00:10:03"
447,chukhloma,58.7525,42.6825,-1.15,90,100,5.11,RU,"01/21/2023,00:10:03"
448,santa maria del oro,25.9333,-105.3667,19.28,13,58,7.86,MX,"01/21/2023,00:10:04"
449,riyadh,24.6877,46.7219,10.08,49,5,2.6,SA,"01/21/2023,00:07:25"
450,nishihara,26.1842,127.7558,16.6,63,75,4.12,JP,"01/21/2023,00:10:05"
451,milkovo,54.7167,158.6167,-21.8,95,100,0.91,RU,"01/21/2023,00:10:05"
452,hoquiam,46.9809,-123.8893,9.96,78,0,4.12,US,"01/21/2023,00:10:06"
453,konstantinovka,49.6167,127.9833,-44.07,100,63,0.51,RU,"01/21/2023,00:10:06"
454,tecoanapa,16.5167,-98.75,26.29,68,3,2.85,MX,"01/21/2023,00:10:07"
455,hamilton,39.1834,-84.5333,2.11,71,100,5.66,US,"01/21/2023,00:01:58"
456,devli,25.75,75.3833,9.61,55,1,2.91,IN,"01/21/2023,00:10:07"
457,vilyuysk,63.7553,121.6247,-51.46,100,79,1.24,RU,"01/21/2023,00:10:08"
458,aleppo,36.25,37.5,8.83,78,0,3.63,SY,"01/21/2023,00:10:08"
459,murgab,37.4966,61.9714,-2.65,51,33,1.69,TM,"01/21/2023,00:10:09"
460,itarema,-2.9248,-39.9167,26.17,77,100,4.97,BR,"01/21/2023,00:10:09"
461,waingapu,-9.6567,120.2641,27.05,73,56,2.85,ID,"01/21/2023,00:10:10"
462,kulu,39.0951,33.0799,4.7,73,0,2.29,TR,"01/21/2023,00:10:11"
463,fomboni,-12.28,43.7425,27.73,77,100,6.54,KM,"01/21/2023,00:10:11"
464,sinegorye,62.0788,150.477,-31.73,99,100,1.61,RU,"01/21/2023,00:10:12"
465,saint anthony,45.0205,-93.218,-4.03,86,100,5.14,US,"01/21/2023,00:10:12"
466,geraldton,-28.7667,114.6,23.23,83,75,3.09,AU,"01/21/2023,00:10:12"
467,inongo,-1.95,18.2667,22.4,90,100,3.54,CD,"01/21/2023,00:10:13"
468,ontario,34.0633,-117.6509,16.84,49,20,2.06,US,"01/21/2023,00:06:21"
469,hofn,64.2539,-15.2082,8.01,98,100,14.79,IS,"01/21/2023,00:10:14"
470,ponta delgada,37.7333,-25.6667,14.4,67,75,3.6,PT,"01/21/2023,00:10:14"
471,vanimo,-2.6741,141.3028,26.15,84,100,1.12,PG,"01/21/2023,00:10:14"
472,anau,-16.5167,-151.7333,27.54,65,53,5.61,PF,"01/21/2023,00:10:15"
473,karwar,14.8,74.1333,20.33,46,33,2.39,IN,"01/21/2023,00:10:15"
474,pangnirtung,66.1451,-65.7125,-30.14,96,98,2.48,CA,"01/21/2023,00:10:16"
475,wodonga,-36.1167,146.8833,26.82,42,77,1.79,AU,"01/21/2023,00:10:16"
476,vangaindrano,-23.35,47.6,23.88,93,100,3.21,MG,"01/21/2023,00:10:17"
477,belo oriente,-19.22,-42.4836,21.15,99,100,1.49,BR,"01/21/2023,00:10:17"
478,longhua,23.6137,114.1919,13.07,72,78,0.71,CN,"01/21/2023,00:10:18"
479,ossora,59.2353,163.0719,-29.15,84,4,2.87,RU,"01/21/2023,00:10:18"
480,coari,-4.085,-63.1414,22.02,96,97,0.67,BR,"01/21/2023,00:10:19"
481,mackenzie,55.2999,-123.1698,0.12,93,100,4.12,CA,"01/21/2023,00:10:19"
482,soledade,-28.8183,-52.5103,20.33,75,14,2.9,BR,"01/21/2023,00:10:20"
483,loandjili,-4.7561,11.8578,24.75,83,86,1.53,CG,"01/21/2023,00:10:20"
484,ratnagiri,16.9833,73.3,20.49,68,92,1.9,IN,"01/21/2023,00:10:21"
485,teguise,29.0605,-13.564,15.12,63,20,5.14,ES,"01/21/2023,00:10:21"
486,hambantota,6.1241,81.1185,22.52,79,98,4.49,LK,"01/21/2023,00:06:13"
487,lokosovo,61.1333,74.8167,-22.88,92,94,5.22,RU,"01/21/2023,00:10:22"
488,lamar,33.6668,-95.5836,12.58,47,0,3.09,US,"01/21/2023,00:10:23"
489,makakilo city,21.3469,-158.0858,27.23,56,0,8.23,US,"01/21/2023,00:10:23"
490,lorengau,-2.0226,147.2712,27.69,78,100,3.05,PG,"01/21/2023,00:10:24"
491,leh,34.1667,77.5833,-14.5,98,96,0.44,IN,"01/21/2023,00:10:24"
492,hervey bay,-25.2986,152.8535,26.12,64,38,4.92,AU,"01/21/2023,00:11:25"
493,karaton,-6.3424,106.1045,23.58,89,100,1.85,ID,"01/21/2023,00:11:25"
494,axim,4.8699,-2.2405,26.43,85,100,1.24,GH,"01/21/2023,00:11:26"
495,pisco,-13.7,-76.2167,21.03,83,75,6.69,PE,"01/21/2023,00:09:44"
496,rio gallegos,-51.6226,-69.2181,13.75,72,100,3.58,AR,"01/21/2023,00:11:26"
497,ahipara,-35.1667,173.1667,22.89,60,99,3.12,NZ,"01/21/2023,00:08:33"
498,carapicuiba,-23.5534,-46.8485,20.09,88,67,1.34,BR,"01/21/2023,00:03:38"
499,puerto escondido,15.85,-97.0667,27.46,69,40,1.03,MX,"01/21/2023,00:11:27"
500,bay city,43.5945,-83.8889,0.18,79,100,4.63,US,"01/21/2023,00:07:56"
501,unity,52.4501,-109.1682,-5.38,87,64,3.96,CA,"01/21/2023,00:11:28"
502,dandong,40.1292,124.3947,-10.41,32,25,1.68,CN,"01/21/2023,00:11:28"
503,canon city,38.441,-105.2424,-1.18,73,100,2.24,US,"01/21/2023,00:11:29"
504,verkhnevilyuysk,63.4453,120.3167,-51.0,100,90,1.09,RU,"01/21/2023,00:11:29"
505,margate,51.3813,1.3862,4.94,76,35,2.24,GB,"01/21/2023,00:11:30"
506,dafeng,23.4517,108.5881,9.94,59,9,0.89,CN,"01/21/2023,00:11:30"
507,chernyshevskiy,63.0128,112.4714,-45.56,100,93,0.79,RU,"01/21/2023,00:11:31"
508,cap-aux-meules,47.3821,-61.8597,-0.97,93,100,9.26,CA,"01/21/2023,00:11:32"
509,aksu,41.1231,80.2644,-17.36,85,4,1.73,CN,"01/21/2023,00:11:32"
510,angoche,-16.2325,39.9086,24.64,91,95,1.53,MZ,"01/21/2023,00:11:32"
511,tura,25.5198,90.2201,11.98,63,1,1.35,IN,"01/21/2023,00:11:33"
512,george,-33.963,22.4617,17.75,100,75,1.54,ZA,"01/21/2023,00:11:33"
513,maple creek,49.9168,-109.4848,-2.6,76,100,4.57,CA,"01/21/2023,00:11:34"
514,salalah,17.0151,54.0924,19.05,24,0,3.6,OM,"01/21/2023,00:11:34"
515,yulara,-25.2406,130.9889,27.32,25,15,5.41,AU,"01/21/2023,00:11:35"
516,talnakh,69.4865,88.3972,-34.38,86,73,3.7,RU,"01/21/2023,00:11:35"
517,ribas do rio pardo,-20.4431,-53.7592,23.8,83,43,1.03,BR,"01/21/2023,00:11:36"
518,sambava,-14.2667,50.1667,23.24,88,100,1.75,MG,"01/21/2023,00:11:36"
519,touros,-5.1989,-35.4608,26.4,75,42,5.47,BR,"01/21/2023,00:11:37"
520,crixas,-14.5489,-49.9692,22.69,90,79,1.45,BR,"01/21/2023,00:11:37"
521,doka,13.5167,35.7667,24.29,35,59,4.95,SD,"01/21/2023,00:10:15"
522,nadym,65.5333,72.5167,-16.24,95,100,12.32,RU,"01/21/2023,00:11:38"
523,vuktyl,63.8567,57.3094,-2.68,97,100,3.73,RU,"01/21/2023,00:11:39"
524,kerema,-7.9631,145.7785,26.87,78,100,0.79,PG,"01/21/2023,00:11:39"
525,marawi,7.9986,124.2928,21.38,83,92,0.48,PH,"01/21/2023,00:11:40"
526,nome,64.5011,-165.4064,-22.96,77,0,6.69,US,"01/21/2023,00:02:50"
527,darnah,32.767,22.6367,12.8,63,2,6.31,LY,"01/21/2023,00:11:40"
528,hovd,48.0056,91.6419,-14.49,84,100,1.51,MN,"01/21/2023,00:11:41"
529,kimbe,-5.5502,150.1429,28.84,73,100,1.09,PG,"01/21/2023,00:11:41"
530,sokoni,-6.4333,39.55,27.09,82,92,7.43,TZ,"01/21/2023,00:11:42"
531,brigantine,39.4101,-74.3646,7.22,63,100,8.75,US,"01/21/2023,00:07:29"
532,hammerfest,70.6634,23.6821,2.25,75,75,9.77,NO,"01/21/2023,00:11:42"
533,kaeo,-35.1,173.7833,25.74,66,98,1.88,NZ,"01/21/2023,00:09:26"
534,piacabucu,-10.4056,-36.4344,25.8,78,82,4.96,BR,"01/21/2023,00:11:43"
535,mancio lima,-7.6142,-72.8958,21.23,99,100,1.62,BR,"01/21/2023,00:11:43"
536,khuzhir,53.1939,107.3397,-26.25,78,81,3.13,RU,"01/21/2023,00:11:44"
537,sawakin,19.1059,37.3321,25.02,74,47,1.17,SD,"01/21/2023,00:11:45"
538,quthing,-30.4,27.7003,21.01,60,71,1.77,LS,"01/21/2023,00:11:45"
539,aranos,-24.1333,19.1167,25.79,40,53,3.8,NA,"01/21/2023,00:11:45"
540,togitsu,32.8333,129.85,5.28,52,5,1.9,JP,"01/21/2023,00:12:46"
541,itoman,26.1247,127.6694,17.01,61,75,4.12,JP,"01/21/2023,00:12:46"
542,tahta,26.7693,31.5021,13.28,32,3,2.79,EG,"01/21/2023,00:12:47"
543,yucca valley,34.1142,-116.4322,11.09,34,0,8.05,US,"01/21/2023,00:12:47"
544,umm lajj,25.0213,37.2685,21.95,55,85,0.77,SA,"01/21/2023,00:09:38"
545,khasan,42.4308,130.6434,-12.27,48,99,3.38,RU,"01/21/2023,00:12:48"
546,pemba,-12.974,40.5178,24.82,90,100,4.05,MZ,"01/21/2023,00:12:48"
547,kingston,17.997,-76.7936,27.53,71,20,8.23,JM,"01/21/2023,00:09:03"
548,kuopio,62.8924,27.677,-4.03,93,100,6.69,FI,"01/21/2023,00:12:49"
549,kayerkan,69.3497,87.7602,-34.92,80,82,2.75,RU,"01/21/2023,00:12:49"
550,amuntai,-2.4177,115.2494,24.61,93,99,0.52,ID,"01/21/2023,00:12:50"
551,abu samrah,35.3029,37.1841,9.22,61,0,2.6,SY,"01/21/2023,00:12:50"
552,barybino,55.2677,37.8933,0.59,71,0,5.0,RU,"01/21/2023,00:12:51"
553,divnomorskoye,44.5011,38.1353,10.15,57,100,2.36,RU,"01/21/2023,00:12:51"
554,comodoro rivadavia,-45.8667,-67.5,19.39,77,100,1.77,AR,"01/21/2023,00:12:42"
555,grand gaube,-20.0064,57.6608,23.54,90,98,1.34,MU,"01/21/2023,00:12:52"
556,kaffrine,14.1059,-15.5508,20.49,41,1,5.19,SN,"01/21/2023,00:12:52"
557,saint-joseph,-21.3667,55.6167,26.21,84,97,0.33,RE,"01/21/2023,00:12:53"
558,olden,61.8364,6.8064,-2.59,61,7,4.07,NO,"01/21/2023,00:12:53"
559,jalu,29.0331,21.5482,11.05,60,17,2.42,LY,"01/21/2023,00:12:54"
560,telhara,21.0269,76.8389,19.26,52,5,2.18,IN,"01/21/2023,00:12:54"
561,ewa beach,21.3156,-158.0072,28.02,57,0,8.23,US,"01/21/2023,00:12:55"
562,hobyo,5.3505,48.5268,24.78,81,98,9.71,SO,"01/21/2023,00:12:55"
563,cascais,38.6979,-9.4215,14.41,91,4,3.13,PT,"01/21/2023,00:12:56"
564,macapa,0.0389,-51.0664,24.77,88,54,4.04,BR,"01/21/2023,00:10:59"
565,soe,-9.8607,124.284,22.45,79,98,2.47,ID,"01/21/2023,00:12:57"
566,awbari,26.5921,12.7805,8.27,26,0,2.28,LY,"01/21/2023,00:12:57"
567,san felipe,10.3399,-68.7425,20.83,93,51,1.72,VE,"01/21/2023,00:12:58"
568,del rio,29.3627,-100.8968,19.06,43,0,8.75,US,"01/21/2023,00:11:42"
569,kannangad,12.3081,75.1063,20.58,65,9,2.0,IN,"01/21/2023,00:12:59"
570,pingliang,35.5392,106.6861,-3.09,56,86,0.99,CN,"01/21/2023,00:13:00"
571,natal,-5.795,-35.2094,26.32,72,44,4.58,BR,"01/21/2023,00:12:10"
572,balakhta,55.38,91.6,-34.81,99,97,1.95,RU,"01/21/2023,00:11:10"
573,antipovka,49.8299,45.3122,-8.18,87,74,4.85,RU,"01/21/2023,00:13:00"
574,acurenam,1.0322,10.6488,20.27,99,54,1.74,GQ,"01/21/2023,00:13:01"
575,turukhansk,65.8167,87.9833,-39.82,86,3,1.75,RU,"01/21/2023,00:13:01"
576,minab,27.1467,57.0801,14.8,36,0,5.01,IR,"01/21/2023,00:11:00"
577,toora-khem,52.4675,96.11,-19.66,91,100,2.04,RU,"01/21/2023,00:13:02"
578,juneau,58.3019,-134.4197,6.23,92,100,14.92,US,"01/21/2023,00:13:03"
579,camocim,-2.9022,-40.8411,25.44,84,100,4.68,BR,"01/21/2023,00:13:03"
580,mayumba,-3.432,10.6554,24.97,86,100,0.61,GA,"01/21/2023,00:13:04"
581,santiago del estero,-27.7951,-64.2615,37.1,18,0,4.21,AR,"01/21/2023,00:09:19"
582,faya,18.3851,42.4509,9.29,74,1,0.47,SA,"01/21/2023,00:13:05"
583,lensk,60.7253,114.9278,-52.1,100,76,0.28,RU,"01/21/2023,00:13:06"
584,mandera,3.9366,41.867,25.5,29,49,3.53,KE,"01/21/2023,00:13:06"
585,ankang,32.68,109.0172,1.83,56,51,1.06,CN,"01/21/2023,00:13:07"
586,souillac,-20.5167,57.5167,24.72,88,100,1.87,MU,"01/21/2023,00:13:08"
